{
  "maps": {
    "id1582631356297": {
      "label": "지도",
      "state": 0,
      "bkmrk": {
        "id1582713052925426": {
          "label": "별내",
          "latlng": "37.651175,127.122545",
          "z": 15
        },
        "id1582713101427599": {
          "label": "우철이형",
          "latlng": "37.239041,127.071261",
          "z": 16
        },
        "id1582713132636648": {
          "label": "잠실",
          "latlng": "37.512534,127.098641",
          "z": 16
        },
        "id1582713147012710": {
          "label": "노원역",
          "latlng": "37.655677,127.063011",
          "z": 17
        },
        "id1582713161409865": {
          "label": "국민대",
          "latlng": "37.610789,126.996374",
          "z": 17
        }
      }
    },
    "idOthers": { "label": "Others", "state": 1, "bkmrk": {} }
  },
  "portals": {
    "id1582631413203": {
      "label": "포털",
      "state": 0,
      "bkmrk": {
        "id1582187747187955": {
          "guid": "0aada61d93254ad5ab4d762fcc8c3191.16",
          "latlng": "37.647808,127.117754",
          "label": "어린이놀이터(별내 별가람)"
        },
        "id15821877499661012": {
          "guid": "ad9c72f4e67c44c9b6bea0e79ff41416.16",
          "latlng": "37.647138,127.117913",
          "label": "새소리 놀이터"
        },
        "id15821877536781155": {
          "guid": "28403180ce1345f9b6287ab560020cf1.16",
          "latlng": "37.647003,127.118451",
          "label": "어린이놀이터(별내 예가)"
        },
        "id15821877696071395": {
          "guid": "4f98f4a0b9694bda991384241abbc80f.16",
          "latlng": "37.643527,127.118109",
          "label": "우미린 놀이터"
        },
        "id15821877834671429": {
          "guid": "90637e2b6c5143a28388ca087fc69e01.16",
          "latlng": "37.646469,127.122383",
          "label": "작은 공연장과 분수대"
        },
        "id15821878827371529": {
          "guid": "d0920d620f334729976376aa4a3ea1ef.16",
          "latlng": "37.64403,127.118786",
          "label": "비상"
        },
        "id15821877616091263": {
          "guid": "84bd88da6b714a6da8866a9c3f06d157.16",
          "latlng": "37.646937,127.119467",
          "label": "정자(별내  예가)"
        },
        "id15821878972031618": {
          "guid": "ac4d1e911fb546fa8a5f31b54123ed8e.16",
          "latlng": "37.644327,127.118714",
          "label": "우리들의 천국"
        }
      }
    },
    "id1582713550787954": {
      "label": "필드공략",
      "state": 0,
      "bkmrk": {
        "id15821882904101760": {
          "guid": "a8d19472db7844eb97450cd7bd116a33.16",
          "latlng": "37.649814,127.117935",
          "label": "깃발 놀이터"
        },
        "id15821883191421839": {
          "guid": "79f554796b6a4ae09e1eef5f7162c87b.16",
          "latlng": "37.652998,127.117004",
          "label": "SDA 별내교회"
        },
        "id15827135973951061": {
          "guid": "2dab413d1b8544038815593866290406.16",
          "latlng": "37.64789,127.112248",
          "label": "꿈으로 사랑으로"
        },
        "id1582187744306871": {
          "guid": "d3bb59586cb342389dd9953ae387eeba.16",
          "latlng": "37.65018,127.116775",
          "label": "풍년 놀이터"
        },
        "id158218773757964": {
          "guid": "4d63b0adfc8745c6b7afaa070150632d.16",
          "latlng": "37.649911,127.115775",
          "label": "별빛사랑마을3단지놀이터"
        },
        "id1582187735160537": {
          "guid": "08ce4d937f544534ba4d32cf5c9ce2e5.16",
          "latlng": "37.649253,127.115052",
          "label": "밧줄놀이터"
        },
        "id1582187731257453": {
          "guid": "13128eafd2f74ceba4d7a65b771d6d3c.16",
          "latlng": "37.649044,127.117092",
          "label": "자연의 꿈"
        },
        "id1582187484646183": {
          "guid": "8f087b6885ec48e6b9fbd38069d5db51.16",
          "latlng": "37.648507,127.121355",
          "label": "바이킹 놀이터"
        },
        "id1582187726464382": {
          "guid": "b0371e165c7b40479c95802104fca150.16",
          "latlng": "37.648601,127.116027",
          "label": "유토빌회전놀이터"
        },
        "id15827136084521183": {
          "guid": "6c8b8b4534124d139de7a5319ff4eafd.16",
          "latlng": "37.648476,127.11522",
          "label": "정자(별내 유토빌)"
        }
      }
    },
    "idOthers": { "label": "Others", "state": 1, "bkmrk": {} }
  }
}